{ "count": 10785236,
  "photos": [{
    "photo_id": 27932,
    "photo_title": "Atardecer en Embalse",
    "photo_url": "http://www.panoramio.com/photo/27932",
    "photo_file_url": "http://mw2.google.com/mw-panoramio/photos/medium/27932.jpg",
    "longitude": 32.060712,
    "latitude": 49.435068,
    "width": 500,
    "height": 375,
    "upload_date": "25 June 2006",
    "owner_id": 4483,
    "owner_name": "Miguel Coranti",
    "owner_url": "http://www.panoramio.com/user/4483"
  }, {
    "photo_id": 114795,
    "photo_title": "TIBAUM-BIZZAR",
    "photo_url": "http://www.panoramio.com/photo/114795",
    "photo_file_url": "http://mw2.google.com/mw-panoramio/photos/medium/114795.jpg",
    "longitude": 32.057625,
    "latitude": 49.432495,
    "width": 334,
    "height": 500,
    "upload_date": "11 December 2006",
    "owner_id": 13121,
    "owner_name": "Andreas G.M.",
    "owner_url": "http://www.panoramio.com/user/13121"
  }, {
    "photo_id": 679343,
    "photo_title": "melbourne sunset over the yarra river",
    "photo_url": "http://www.panoramio.com/photo/679343",
    "photo_file_url": "http://mw2.google.com/mw-panoramio/photos/medium/679343.jpg",
    "longitude": 32.055405,
    "latitude": 49.433840,
    "width": 500,
    "height": 500,
    "upload_date": "04 February 2007",
    "owner_id": 146092,
    "owner_name": "sid1662",
    "owner_url": "http://www.panoramio.com/user/146092"
  }, {
    "photo_id": 436336,
    "photo_title": "myoujyousan",
    "photo_url": "http://www.panoramio.com/photo/436336",
    "photo_file_url": "http://mw2.google.com/mw-panoramio/photos/medium/436336.jpg",
    "longitude": 32.057439,
    "latitude": 49.428773,
    "width": 500,
    "height": 362,
    "upload_date": "15 January 2007",
    "owner_id": 86411,
    "owner_name": "中村脩-Osamu nakamura",
    "owner_url": "http://www.panoramio.com/user/86411"
  }, {
    "photo_id": 9733680,
    "photo_title": "Sydney",
    "photo_url": "http://www.panoramio.com/photo/9733680",
    "photo_file_url": "http://mw2.google.com/mw-panoramio/photos/medium/9733680.jpg",
    "longitude": 32.050475,
    "latitude": 49.406471,
    "width": 333,
    "height": 500,
    "upload_date": "28 April 2008",
    "owner_id": 1465912,
    "owner_name": "funtor",
    "owner_url": "http://www.panoramio.com/user/1465912"
  }, {
    "photo_id": 7415625,
    "photo_title": "Në fushë të Pallaticesë",
    "photo_url": "http://www.panoramio.com/photo/7415625",
    "photo_file_url": "http://mw2.google.com/mw-panoramio/photos/medium/7415625.jpg",
    "longitude": 32.026732,
    "latitude": 49.412982,
    "width": 437,
    "height": 500,
    "upload_date": "28 January 2008",
    "owner_id": 695042,
    "owner_name": "Neim Sejfuli ♦",
    "owner_url": "http://www.panoramio.com/user/695042"
  }, {
    "photo_id": 5358174,
    "photo_title": "Morning Glory",
    "photo_url": "http://www.panoramio.com/photo/5358174",
    "photo_file_url": "http://mw2.google.com/mw-panoramio/photos/medium/5358174.jpg",
    "longitude": 32.020829,
    "latitude": 49.415583,
    "width": 500,
    "height": 348,
    "upload_date": "16 October 2007",
    "owner_id": 66847,
    "owner_name": "Lukas Novak",
    "owner_url": "http://www.panoramio.com/user/66847"
  }, {
    "photo_id": 316199,
    "photo_title": "A lake on Gasherbrum glacier",
    "photo_url": "http://www.panoramio.com/photo/316199",
    "photo_file_url": "http://mw2.google.com/mw-panoramio/photos/medium/316199.jpg",
    "longitude": 32.144122,
    "latitude": 49.403578,
    "width": 500,
    "height": 375,
    "upload_date": "06 January 2007",
    "owner_id": 65672,
    "owner_name": "www.turclubmai.ru",
    "owner_url": "http://www.panoramio.com/user/65672"
  }, {
    "photo_id": 400536,
    "photo_title": "Half Dome Mtn, Yosemite Nat Park,  CA",
    "photo_url": "http://www.panoramio.com/photo/400536",
    "photo_file_url": "http://mw2.google.com/mw-panoramio/photos/medium/400536.jpg",
    "longitude": 32.098652,
    "latitude": 49.439775,
    "width": 500,
    "height": 333,
    "upload_date": "12 January 2007",
    "owner_id": 85489,
    "owner_name": "Bruce MacIver",
    "owner_url": "http://www.panoramio.com/user/85489"
  }, {
    "photo_id": 2942693,
    "photo_title": "Tulips and Windmills",
    "photo_url": "http://www.panoramio.com/photo/2942693",
    "photo_file_url": "http://mw2.google.com/mw-panoramio/photos/medium/2942693.jpg",
    "longitude": 32.064947,
    "latitude": 49.451943,
    "width": 500,
    "height": 500,
    "upload_date": "25 June 2007",
    "owner_id": 588149,
    "owner_name": "Adam Salwanowicz",
    "owner_url": "http://www.panoramio.com/user/588149"
  }, {
    "photo_id": 9733633,
    "photo_title": "Oper-Sydney",
    "photo_url": "http://www.panoramio.com/photo/9733633",
    "photo_file_url": "http://mw2.google.com/mw-panoramio/photos/medium/9733633.jpg",
    "longitude": 32.083615,
    "latitude": 49.440336,
    "width": 500,
    "height": 333,
    "upload_date": "28 April 2008",
    "owner_id": 1465912,
    "owner_name": "funtor",
    "owner_url": "http://www.panoramio.com/user/1465912"
  }, {
    "photo_id": 2558057,
    "photo_title": "Kin-dza-dza 2",
    "photo_url": "http://www.panoramio.com/photo/2558057",
    "photo_file_url": "http://mw2.google.com/mw-panoramio/photos/medium/2558057.jpg",
    "longitude": 30.785751,
    "latitude": 46.639301,
    "width": 500,
    "height": 375,
    "upload_date": "03 June 2007",
    "owner_id": 13058,
    "owner_name": "Kyryl",
    "owner_url": "http://www.panoramio.com/user/13058"
  }, {
    "photo_id": 7768089,
    "photo_title": "Isteni színjáték",
    "photo_url": "http://www.panoramio.com/photo/7768089",
    "photo_file_url": "http://mw2.google.com/mw-panoramio/photos/medium/7768089.jpg",
    "longitude": 32.030373,
    "latitude": 49.459529,
    "width": 500,
    "height": 334,
    "upload_date": "12 February 2008",
    "owner_id": 109117,
    "owner_name": "Busa Péter",
    "owner_url": "http://www.panoramio.com/user/109117"
  }, {
    "photo_id": 10158925,
    "photo_title": "Lluvia púrpura ( Purple rain )",
    "photo_url": "http://www.panoramio.com/photo/10158925",
    "photo_file_url": "http://mw2.google.com/mw-panoramio/photos/medium/10158925.jpg",
    "longitude": 32.027380,
    "latitude": 49.467527,
    "width": 500,
    "height": 333,
    "upload_date": "12 May 2008",
    "owner_id": 787217,
    "owner_name": "♣ Víctor S de Lara ♣",
    "owner_url": "http://www.panoramio.com/user/787217"
  },  {
    "photo_id": 346687,
    "photo_title": "namibia desert",
    "photo_url": "http://www.panoramio.com/photo/346687",
    "photo_file_url": "http://mw2.google.com/mw-panoramio/photos/medium/346687.jpg",
    "longitude": 32.027380,
    "latitude": 49.467527,
    "width": 500,
    "height": 334,
    "upload_date": "08 January 2007",
    "owner_id": 69671,
    "owner_name": "illusandpics.com",
    "owner_url": "http://www.panoramio.com/user/69671"
  }, {
    "photo_id": 1913758,
    "photo_title": "Cortona - Via Gino Severini",
    "photo_url": "http://www.panoramio.com/photo/1913758",
    "photo_file_url": "http://mw2.google.com/mw-panoramio/photos/medium/1913758.jpg",
    "longitude": 32.027380,
    "latitude": 49.467527,
    "width": 500,
    "height": 498,
    "upload_date": "24 April 2007",
    "owner_id": 193913,
    "owner_name": "Klesitz Piroska",
    "owner_url": "http://www.panoramio.com/user/193913"
  }, {
    "photo_id": 6789223,
    "photo_title": "Exploding sky",
    "photo_url": "http://www.panoramio.com/photo/6789223",
    "photo_file_url": "http://mw2.google.com/mw-panoramio/photos/medium/6789223.jpg",
    "longitude": 32.059426,
    "latitude": 49.428692,
    "width": 500,
    "height": 333,
    "upload_date": "30 December 2007",
    "owner_id": 89499,
    "owner_name": "Michael Braxenthaler",
    "owner_url": "http://www.panoramio.com/user/89499"
  }, {
    "photo_id": 3722547,
    "photo_title": "Morning fog in the Alps",
    "photo_url": "http://www.panoramio.com/photo/3722547",
    "photo_file_url": "http://mw2.google.com/mw-panoramio/photos/medium/3722547.jpg",
    "longitude": 32.059426,
    "latitude": 49.428692,
    "width": 500,
    "height": 333,
    "upload_date": "04 August 2007",
    "owner_id": 89499,
    "owner_name": "Michael Braxenthaler",
    "owner_url": "http://www.panoramio.com/user/89499"
  }, {
    "photo_id": 9530458,
    "photo_title": "Castillian cereal fields from Atienza walls",
    "photo_url": "http://www.panoramio.com/photo/9530458",
    "photo_file_url": "http://mw2.google.com/mw-panoramio/photos/medium/9530458.jpg",
    "longitude": 32.059426,
    "latitude": 49.428692,
    "width": 500,
    "height": 470,
    "upload_date": "20 April 2008",
    "owner_id": 134279,
    "owner_name": "4ullas",
    "owner_url": "http://www.panoramio.com/user/134279"
  }, {
    "photo_id": 2935974,
    "photo_title": "Atardecer tras el Anboto desde el Aitzgorri",
    "photo_url": "http://www.panoramio.com/photo/2935974",
    "photo_file_url": "http://mw2.google.com/mw-panoramio/photos/medium/2935974.jpg",
    "longitude": 32.059426,
    "latitude": 49.428692,
    "width": 500,
    "height": 331,
    "upload_date": "25 June 2007",
    "owner_id": 129297,
    "owner_name": "Enrique Ortiz de Zárate",
    "owner_url": "http://www.panoramio.com/user/129297"
  }, {
    "photo_id": 38587,
    "photo_title": "Blitz",
    "photo_url": "http://www.panoramio.com/photo/38587",
    "photo_file_url": "http://mw2.google.com/mw-panoramio/photos/medium/38587.jpg",
    "longitude": 32.059726,
    "latitude": 49.428192,
    "width": 500,
    "height": 375,
    "upload_date": "13 August 2006",
    "owner_id": 6002,
    "owner_name": "Paul Feiler",
    "owner_url": "http://www.panoramio.com/user/6002"
  }, {
    "photo_id": 9312247,
    "photo_title": "Idrija - High water after rain",
    "photo_url": "http://www.panoramio.com/photo/9312247",
    "photo_file_url": "http://mw2.google.com/mw-panoramio/photos/medium/9312247.jpg",
    "longitude": 32.059432,
    "latitude": 49.428699,
    "width": 500,
    "height": 375,
    "upload_date": "12 April 2008",
    "owner_id": 763995,
    "owner_name": "Samo T.",
    "owner_url": "http://www.panoramio.com/user/763995"
  }, {
    "photo_id": 110409,
    "photo_title": "Laguna de Yanganuco",
    "photo_url": "http://www.panoramio.com/photo/110409",
    "photo_file_url": "http://mw2.google.com/mw-panoramio/photos/medium/110409.jpg",
    "longitude": 32.059426,
    "latitude": 49.428682,
    "width": 330,
    "height": 500,
    "upload_date": "11 December 2006",
    "owner_id": 16323,
    "owner_name": "Luis Torres",
    "owner_url": "http://www.panoramio.com/user/16323"
  }, {
    "photo_id": 7609439,
    "photo_title": "Fényfürdő",
    "photo_url": "http://www.panoramio.com/photo/7609439",
    "photo_file_url": "http://mw2.google.com/mw-panoramio/photos/medium/7609439.jpg",
    "longitude": 32.059426,
    "latitude": 49.428662,
    "width": 500,
    "height": 312,
    "upload_date": "05 February 2008",
    "owner_id": 109117,
    "owner_name": "Busa Péter",
    "owner_url": "http://www.panoramio.com/user/109117"
  }, {
    "photo_id": 8599453,
    "photo_title": "Realidad comprimida",
    "photo_url": "http://www.panoramio.com/photo/8599453",
    "photo_file_url": "http://mw2.google.com/mw-panoramio/photos/medium/8599453.jpg",
    "longitude": 32.059426,
    "latitude": 49.428692,
    "width": 500,
    "height": 387,
    "upload_date": "17 March 2008",
    "owner_id": 129297,
    "owner_name": "Enrique Ortiz de Zárate",
    "owner_url": "http://www.panoramio.com/user/129297"
  }, {
    "photo_id": 233921,
    "photo_title": "Mount Titlis,  Engelberg,  Switzerland  www.titlis.ch  /  www.engelberg.ch/ www.berghuette.ch /www.brunnihuette.ch",
    "photo_url": "http://www.panoramio.com/photo/233921",
    "photo_file_url": "http://mw2.google.com/mw-panoramio/photos/medium/233921.jpg",
    "longitude": 32.059426,
    "latitude": 49.428692,
    "width": 500,
    "height": 375,
    "upload_date": "25 December 2006",
    "owner_id": 47930,
    "owner_name": "werni",
    "owner_url": "http://www.panoramio.com/user/47930"
  }, {
    "photo_id": 561386,
    "photo_title": "the country",
    "photo_url": "http://www.panoramio.com/photo/561386",
    "photo_file_url": "http://mw2.google.com/mw-panoramio/photos/medium/561386.jpg",
    "longitude": 31.995304,
    "latitude": 49.486299,
    "width": 500,
    "height": 383,
    "upload_date": "24 January 2007",
    "owner_id": 86411,
    "owner_name": "中村脩-Osamu nakamura",
    "owner_url": "http://www.panoramio.com/user/86411"
  }, {
    "photo_id": 1195112,
    "photo_title": "Tolar Grande",
    "photo_url": "http://www.panoramio.com/photo/1195112",
    "photo_file_url": "http://mw2.google.com/mw-panoramio/photos/medium/1195112.jpg",
    "longitude": 31.995304,
    "latitude": 49.486299,
    "width": 500,
    "height": 342,
    "upload_date": "06 March 2007",
    "owner_id": 232099,
    "owner_name": "mabut",
    "owner_url": "http://www.panoramio.com/user/232099"
  }, {
    "photo_id": 5466129,
    "photo_title": "\"Lasciate ogne speranza, voi ch’intrate\". (\"Abandon all hope, ye who enter here\" ; \"Toi qui entre ici, abandonne toute espérance\".) Dante e il primo girone dell'Inferno (o Virgilio nella selva oscura, accanto all'ingresso dell'Inferno) (ou encore, plus prosaïquement, pêche dans le Jaunay en Vendée, le 21 octobre 2007 à l'aube d'un très froid matin d'automne). #129",
    "photo_url": "http://www.panoramio.com/photo/5466129",
    "photo_file_url": "http://mw2.google.com/mw-panoramio/photos/medium/5466129.jpg",
    "longitude": 31.995304,
    "latitude": 49.486299,
    "width": 500,
    "height": 281,
    "upload_date": "22 October 2007",
    "owner_id": 666755,
    "owner_name": "Armagnac",
    "owner_url": "http://www.panoramio.com/user/666755"
  }, {
    "photo_id": 57820,
    "photo_title": "Hallstatt 2",
    "photo_url": "http://www.panoramio.com/photo/57820",
    "photo_file_url": "http://mw2.google.com/mw-panoramio/photos/medium/57820.jpg",
    "longitude": 31.995304,
    "latitude": 49.486299,
    "width": 500,
    "height": 333,
    "upload_date": "05 October 2006",
    "owner_id": 8060,
    "owner_name": "Norbert MAIER",
    "owner_url": "http://www.panoramio.com/user/8060"
  }, {
    "photo_id": 798312,
    "photo_title": "Riflettendo...",
    "photo_url": "http://www.panoramio.com/photo/798312",
    "photo_file_url": "http://mw2.google.com/mw-panoramio/photos/medium/798312.jpg",
    "longitude": 32.028835,
    "latitude": 49.462827,
    "width": 500,
    "height": 332,
    "upload_date": "12 February 2007",
    "owner_id": 159455,
    "owner_name": "©Franco Truscello",
    "owner_url": "http://www.panoramio.com/user/159455"
  }, {
    "photo_id": 7401432,
    "photo_title": "07-12-18_\"Arterias del Bosque\" PIXELECTA",
    "photo_url": "http://www.panoramio.com/photo/7401432",
    "photo_file_url": "http://mw2.google.com/mw-panoramio/photos/medium/7401432.jpg",
    "longitude": 32.028835,
    "latitude": 49.462827,
    "width": 500,
    "height": 333,
    "upload_date": "27 January 2008",
    "owner_id": 163655,
    "owner_name": "[[[   PIXELECTA   ]]]",
    "owner_url": "http://www.panoramio.com/user/163655"
  }, {
    "photo_id": 2584132,
    "photo_title": "Farm Tomita",
    "photo_url": "http://www.panoramio.com/photo/2584132",
    "photo_file_url": "http://mw2.google.com/mw-panoramio/photos/medium/2584132.jpg",
    "longitude": 32.028835,
    "latitude": 49.462827,
    "width": 500,
    "height": 375,
    "upload_date": "05 June 2007",
    "owner_id": 532882,
    "owner_name": "wisdomcomplex",
    "owner_url": "http://www.panoramio.com/user/532882"
  }, {
    "photo_id": 4670499,
    "photo_title": "El despertar de la naturaleza",
    "photo_url": "http://www.panoramio.com/photo/4670499",
    "photo_file_url": "http://mw2.google.com/mw-panoramio/photos/medium/4670499.jpg",
    "longitude": 32.028835,
    "latitude": 49.462827,
    "width": 500,
    "height": 371,
    "upload_date": "15 September 2007",
    "owner_id": 327310,
    "owner_name": "Erwin Woenckhaus",
    "owner_url": "http://www.panoramio.com/user/327310"
  }, {
    "photo_id": 5133875,
    "photo_title": "Lumi Vardar",
    "photo_url": "http://www.panoramio.com/photo/5133875",
    "photo_file_url": "http://mw2.google.com/mw-panoramio/photos/medium/5133875.jpg",
    "longitude": 32.028835,
    "latitude": 49.462827,
    "width": 500,
    "height": 375,
    "upload_date": "06 October 2007",
    "owner_id": 695042,
    "owner_name": "Neim Sejfuli ♦",
    "owner_url": "http://www.panoramio.com/user/695042"
  }, {
    "photo_id": 8309167,
    "photo_title": "Cueva de los Verdes",
    "photo_url": "http://www.panoramio.com/photo/8309167",
    "photo_file_url": "http://mw2.google.com/mw-panoramio/photos/medium/8309167.jpg",
    "longitude": 32.028835,
    "latitude": 49.462827,
    "width": 333,
    "height": 500,
    "upload_date": "05 March 2008",
    "owner_id": 1465912,
    "owner_name": "funtor",
    "owner_url": "http://www.panoramio.com/user/1465912"
  }, {
    "photo_id": 1756166,
    "photo_title": "The Pantheon, Rome, Italy",
    "photo_url": "http://www.panoramio.com/photo/1756166",
    "photo_file_url": "http://mw2.google.com/mw-panoramio/photos/medium/1756166.jpg",
    "longitude": 32.026135,
    "latitude": 49.415943,
    "width": 376,
    "height": 500,
    "upload_date": "13 April 2007",
    "owner_id": 140796,
    "owner_name": "rosina lamberti",
    "owner_url": "http://www.panoramio.com/user/140796"
  }, {
    "photo_id": 1831309,
    "photo_title": "Oak in blue - last one",
    "photo_url": "http://www.panoramio.com/photo/1831309",
    "photo_file_url": "http://mw2.google.com/mw-panoramio/photos/medium/1831309.jpg",
    "longitude": 32.026135,
    "latitude": 49.415943,
    "width": 326,
    "height": 500,
    "upload_date": "18 April 2007",
    "owner_id": 39160,
    "owner_name": "Snemann",
    "owner_url": "http://www.panoramio.com/user/39160"
  }, {
    "photo_id": 626487,
    "photo_title": "A harag napja",
    "photo_url": "http://www.panoramio.com/photo/626487",
    "photo_file_url": "http://mw2.google.com/mw-panoramio/photos/medium/626487.jpg",
    "longitude": 32.026135,
    "latitude": 49.415943,
    "width": 500,
    "height": 333,
    "upload_date": "30 January 2007",
    "owner_id": 109117,
    "owner_name": "Busa Péter",
    "owner_url": "http://www.panoramio.com/user/109117"
  }, {
    "photo_id": 202162,
    "photo_title": "Monument Valley",
    "photo_url": "http://www.panoramio.com/photo/202162",
    "photo_file_url": "http://mw2.google.com/mw-panoramio/photos/medium/202162.jpg",
    "longitude": 32.026135,
    "latitude": 49.415943,
    "width": 500,
    "height": 333,
    "upload_date": "21 December 2006",
    "owner_id": 40260,
    "owner_name": "Don Albonico",
    "owner_url": "http://www.panoramio.com/user/40260"
  }, {
    "photo_id": 791016,
    "photo_title": "Sossusvlei",
    "photo_url": "http://www.panoramio.com/photo/791016",
    "photo_file_url": "http://mw2.google.com/mw-panoramio/photos/medium/791016.jpg",
    "longitude": 32.026135,
    "latitude": 49.415943,
    "width": 500,
    "height": 333,
    "upload_date": "12 February 2007",
    "owner_id": 12736,
    "owner_name": "www.sliwi.de",
    "owner_url": "http://www.panoramio.com/user/12736"
  }, {
    "photo_id": 9760518,
    "photo_title": "Eglise Notre-Dame de la Couture",
    "photo_url": "http://www.panoramio.com/photo/9760518",
    "photo_file_url": "http://mw2.google.com/mw-panoramio/photos/medium/9760518.jpg",
    "longitude": 32.054438,
    "latitude": 49.436187,
    "width": 375,
    "height": 500,
    "upload_date": "29 April 2008",
    "owner_id": 1275480,
    "owner_name": "Nicolas Aubé",
    "owner_url": "http://www.panoramio.com/user/1275480"
  }, {
    "photo_id": 2097684,
    "photo_title": "",
    "photo_url": "http://www.panoramio.com/photo/2097684",
    "photo_file_url": "http://mw2.google.com/mw-panoramio/photos/medium/2097684.jpg",
    "longitude": 32.054438,
    "latitude": 49.436187,
    "width": 500,
    "height": 333,
    "upload_date": "06 May 2007",
    "owner_id": 17488,
    "owner_name": "John Gillett",
    "owner_url": "http://www.panoramio.com/user/17488"
  }, {
    "photo_id": 6851021,
    "photo_title": "Lumi Vardar-Sunset",
    "photo_url": "http://www.panoramio.com/photo/6851021",
    "photo_file_url": "http://mw2.google.com/mw-panoramio/photos/medium/6851021.jpg",
    "longitude": 32.054438,
    "latitude": 49.436187,
    "width": 458,
    "height": 500,
    "upload_date": "02 January 2008",
    "owner_id": 695042,
    "owner_name": "Neim Sejfuli ♦",
    "owner_url": "http://www.panoramio.com/user/695042"
  }, {
    "photo_id": 8137868,
    "photo_title": "Sunset Trace at Kotchi, Korea",
    "photo_url": "http://www.panoramio.com/photo/8137868",
    "photo_file_url": "http://mw2.google.com/mw-panoramio/photos/medium/8137868.jpg",
    "longitude": 32.054438,
    "latitude": 49.436187,
    "width": 500,
    "height": 500,
    "upload_date": "27 February 2008",
    "owner_id": 1221287,
    "owner_name": "TS Jeung",
    "owner_url": "http://www.panoramio.com/user/1221287"
  }, {
    "photo_id": 382104,
    "photo_title": "Meteora",
    "photo_url": "http://www.panoramio.com/photo/382104",
    "photo_file_url": "http://mw2.google.com/mw-panoramio/photos/medium/382104.jpg",
    "longitude": 32.059426,
    "latitude": 49.428692,
    "width": 500,
    "height": 500,
    "upload_date": "11 January 2007",
    "owner_id": 16880,
    "owner_name": "evgenidinev.com",
    "owner_url": "http://www.panoramio.com/user/16880"
  }, {
    "photo_id": 3399014,
    "photo_title": "Vue du Schneibstein vers l'Est",
    "photo_url": "http://www.panoramio.com/photo/3399014",
    "photo_file_url": "http://mw2.google.com/mw-panoramio/photos/medium/3399014.jpg",
    "longitude": 32.066176,
    "latitude": 49.451114,
    "width": 500,
    "height": 328,
    "upload_date": "19 July 2007",
    "owner_id": 78506,
    "owner_name": "Philippe Stoop",
    "owner_url": "http://www.panoramio.com/user/78506"
  }, {
    "photo_id": 29596,
    "photo_title": "Ciudad de Los Cielos",
    "photo_url": "http://www.panoramio.com/photo/29596",
    "photo_file_url": "http://mw2.google.com/mw-panoramio/photos/medium/29596.jpg",
    "longitude": 32.066176,
    "latitude": 49.451114,
    "width": 500,
    "height": 375,
    "upload_date": "01 July 2006",
    "owner_id": 4483,
    "owner_name": "Miguel Coranti",
    "owner_url": "http://www.panoramio.com/user/4483"
  }, {
    "photo_id": 1269713,
    "photo_title": "Rainbow over Olskårdvatnet near Kiberg, Finnmark, Norway",
    "photo_url": "http://www.panoramio.com/photo/1269713",
    "photo_file_url": "http://mw2.google.com/mw-panoramio/photos/medium/1269713.jpg",
    "longitude": 32.066176,
    "latitude": 49.451114,
    "width": 361,
    "height": 500,
    "upload_date": "11 March 2007",
    "owner_id": 66734,
    "owner_name": "Svein Solhaug",
    "owner_url": "http://www.panoramio.com/user/66734"
  }]
}
